[
    {
        "users": [],
        "id": 277,
        "name": "Birch Hill Farm",
        "products": "Katahdin sheep, grass-fed lamb, organic hay, maple syrup, compost",
        "keywords": "Katahdin sheep, grass-fed lamb, organic hay, maple syrup, compost",
        "url": "http:\/\/www.birchhillfarmvt.com\/",
        "email": "",
        "phone": "(802) 457-4806",
        "address": "330 The Loop",
        "city": "Woodstock",
        "state": "VT",
        "zip": "05071",
        "lat": 43.548921365544,
        "lon": -72.540020942688,
        "categories": [
            {
                "id": 12,
                "name": "Compost producer or supplier"
            },
            {
                "id": 95,
                "name": "Compost producer or supplier"
            }
        ]
    },
    {
        "users": [],
        "id": 395,
        "name": "Brault's Market",
        "description": "Brault\u2019s Market is a custom slaughtering, cutting, packing, smokehouse, and curing facility and store.",
        "url": "http:\/\/www.braultsmarket.com\/",
        "phone": "8027442271",
        "address": "6673 Vermont Route 100",
        "city": "Troy",
        "state": "VT",
        "zip": "05868",
        "lat": 44.903027,
        "lon": -72.402992,
        "categories": [
            {
                "id": 12,
                "name": "Compost producer or supplier"
            },
            {
                "id": 95,
                "name": "Compost producer or supplier"
            }
        ]
    },
    {
        "users": [],
        "id": 498,
        "name": "Butterwick Farm",
        "products": "Dairy cattle, maple syrup, compost",
        "keywords": "Dairy cattle, maple syrup, compost",
        "url": "http:\/\/m.cabotcheese.coop\/farmer\/detail\/id\/210",
        "phone": "8024622252",
        "address": "2438 S Bingham St",
        "city": "Whiting",
        "state": "VT",
        "zip": "05778",
        "lat": 43.908802,
        "lon": -73.233627,
        "categories": [
            {
                "id": 12,
                "name": "Compost producer or supplier"
            },
            {
                "id": 95,
                "name": "Compost producer or supplier"
            }
        ]
    },
    {
        "users": [],
        "id": 570,
        "name": "Cedar Mountain Farm",
        "description": "Our market garden is a 4 acre mix of vegetables, flowers, fruit trees and cover crops.  Our draft horses and jersey cows work and graze on the hill pastures and bottomland. With our farm crew we milk cows, make hay, grow vegetables, raise beef and young heifer cows. The land is part of Cobb Hill Co-Housing, a 23 home community focusing on sustainability. The farm is in a  permanent conservation program with the UV Land trust and the VT Housing & Conservation Board.",
        "products": "Raw milk, mixed vegetables, hay, beef, lamb, compost",
        "keywords": "Draft horses, Fjords, raw milk, mixed vegetables, hay, beef, lamb, compost",
        "url": "http:\/\/cedarmountainfarm.org\/",
        "email": "fjordworks@yahoo.com",
        "phone": "8024361448",
        "address": "25 Linden Road",
        "city": "Hartland",
        "state": "VT",
        "zip": "05048",
        "lat": 43.549574555586,
        "lon": -72.425361871719,
        "categories": [
            {
                "id": 12,
                "name": "Compost producer or supplier"
            },
            {
                "id": 95,
                "name": "Compost producer or supplier"
            }
        ]
    },
    {
        "users": [],
        "id": 1026,
        "name": "Down to Earth Worm Farm",
        "description": "",
        "products": "Worm castings, compost",
        "keywords": "Worm Castings, Worms, Compost",
        "url": "http:\/\/downtoearthwormfarmvt.com",
        "email": "newleaf@vtlink.net",
        "phone": "(802) 533-9836",
        "address": "279 The Bend Road",
        "address2": "",
        "city": "Greensboro",
        "state": "VT",
        "zip": "05841",
        "lat": 44.5505512,
        "lon": -72.2671759,
        "categories": [
            {
                "id": 12,
                "name": "Compost producer or supplier"
            }
        ]
    },
    {
        "users": [],
        "id": 4568,
        "name": "Essex Drop-Off Center",
        "description": "CSWD is charged with managing the flow of solid waste in Chittenden County. Part of that role involves keeping as much as possible out of the landfill. To that end, we own Green Mountain Compost, where we turn food scraps and yard debris into compost. We collect food scraps at several locations, including the Essex Drop-Off Center.",
        "url": "http:\/\/cswd.net\/facility-locations\/essex-drop-center\/",
        "phone": "(802) 878-3152",
        "address": "218 Colchester Road",
        "city": "Essex",
        "state": "Vermont",
        "zip": "05452",
        "lat": 44.518751,
        "lon": -73.123645,
        "categories": [
            {
                "id": 12,
                "name": "Compost producer or supplier"
            },
            {
                "id": 95,
                "name": "Compost producer or supplier"
            }
        ]
    },
    {
        "users": [],
        "id": 1161,
        "name": "Evergreen Gardens Of Vermont",
        "description": "",
        "products": "Organic plant starts, compost",
        "keywords": "",
        "url": "http:\/\/evergreengardensvt.com\/",
        "email": "",
        "phone": "8022448523",
        "address": "15 Cabin Lane",
        "address2": "",
        "city": "Waterbury Center",
        "state": "VT",
        "zip": "05677",
        "lat": 44.395821,
        "lon": -72.720657,
        "categories": [
            {
                "id": 12,
                "name": "Compost producer or supplier"
            }
        ]
    },
    {
        "users": [],
        "id": 1175,
        "name": "Fairmont Farm",
        "description": "",
        "keywords": "Vermont Compost Company",
        "url": "http:\/\/www.fairmontfarminc.com\/",
        "email": "",
        "phone": "8022233868",
        "address": "95 Lyle Young Road",
        "address2": "",
        "city": "East Montpelier",
        "state": "VT",
        "zip": "05651",
        "lat": 44.291679,
        "lon": -72.496696,
        "categories": [
            {
                "id": 12,
                "name": "Compost producer or supplier"
            },
            {
                "id": 95,
                "name": "Compost producer or supplier"
            }
        ]
    },
    {
        "users": [],
        "id": 1230,
        "name": "Fisk-Haines Farm",
        "description": "",
        "products": "",
        "keywords": "",
        "url": "",
        "email": "",
        "phone": "8022935354",
        "address": "617 Fisk Road",
        "address2": "",
        "city": "Danby",
        "state": "VT",
        "zip": "05739",
        "lat": 43.370739,
        "lon": -73.057007,
        "categories": [
            {
                "id": 12,
                "name": "Compost producer or supplier"
            },
            {
                "id": 95,
                "name": "Compost producer or supplier"
            }
        ]
    },
    {
        "users": [],
        "id": 1667,
        "name": "Hudak Farm",
        "description": "Hudak Farm now produces our own quality compost and compost-rich planting mixes for gardens, raised beds and containers right here in St. Albans, Vermont.",
        "products": "Organic mixed vegetables, maple syrup, garlic, honey, pickles, compost",
        "keywords": "",
        "url": "http:\/\/www.hudakfarm.com",
        "phone": "8025271147",
        "address": "599 St. Albans Road",
        "city": "Swanton",
        "state": "VT",
        "zip": "05488",
        "lat": 44.849119,
        "lon": -73.088392,
        "categories": [
            {
                "id": 95,
                "name": "Compost producer or supplier"
            }
        ]
    },
    {
        "users": [],
        "id": 2057,
        "name": "Long Wind Farm",
        "description": "",
        "products": "Greenhouse organic tomatoes, compost",
        "keywords": "Greenhouse tomatoes, organic tomatoes, compost",
        "url": "http:\/\/longwindfarm.com\/",
        "email": "info@longwindfarm.com",
        "phone": "(802) 785-2793",
        "address": "82 Wilson Road",
        "address2": "",
        "city": "Thetford",
        "state": "VT",
        "zip": "05043",
        "lat": 43.812809,
        "lon": -72.186134,
        "categories": [
            {
                "id": 95,
                "name": "Compost producer or supplier"
            }
        ]
    },
    {
        "users": [],
        "id": 2511,
        "name": "North Hollow Farm",
        "description": "",
        "products": "Beef, pork, eggs, maple syrup",
        "keywords": "Beef, pork, eggs, maple syrup",
        "url": "http:\/\/vermontgrassfedbeef.weebly.com\/",
        "email": "orders@vermontgrassfedbeef.com",
        "phone": "8027674255",
        "address": "2124 N Hollow Road",
        "address2": "",
        "city": "Rochester",
        "state": "VT",
        "zip": "05767",
        "lat": 43.907215,
        "lon": -72.782318,
        "categories": [
            {
                "id": 12,
                "name": "Compost producer or supplier"
            },
            {
                "id": 95,
                "name": "Compost producer or supplier"
            }
        ]
    },
    {
        "users": [],
        "id": 2610,
        "name": "Over the Hill Farm",
        "description": "",
        "products": "",
        "keywords": "",
        "url": "",
        "email": "",
        "phone": "8025372811",
        "address": "502 Stage Road",
        "address2": "",
        "city": "Benson",
        "state": "VT",
        "zip": "05743",
        "lat": 43.676399,
        "lon": -73.312553,
        "categories": [
            {
                "id": 12,
                "name": "Compost producer or supplier"
            },
            {
                "id": 95,
                "name": "Compost producer or supplier"
            }
        ]
    },
    {
        "users": [],
        "id": 4569,
        "name": "Sandberg Farm",
        "description": "Sandberg Farm makes compost, maple syrup, and eggs.",
        "products": "Eggs, maple syrup, compost",
        "keywords": "Eggs, maple syrup, compost",
        "phone": "(802) 439-5563",
        "address": "587 Abe Jacobs Road",
        "city": "Corinth",
        "state": "Vermont",
        "zip": "05039",
        "lat": 44.014408,
        "lon": -72.276245,
        "categories": [
            {
                "id": 12,
                "name": "Compost producer or supplier"
            },
            {
                "id": 95,
                "name": "Compost producer or supplier"
            }
        ]
    },
    {
        "users": [],
        "id": 4566,
        "name": "TAM Organics",
        "description": "TAM Organics operates a commercial food and farm composting facility in Bennington. TAM Organics offers a pick up service for area businesses.",
        "url": "http:\/\/tamwasteremoval.com\/composting\/",
        "phone": "(802) 447-1300",
        "address": "Houghton Lane",
        "city": "Bennington",
        "state": "Vermont",
        "zip": "05201",
        "lat": 42.923937503443,
        "lon": -73.196926116943,
        "categories": [
            {
                "id": 12,
                "name": "Compost producer or supplier"
            },
            {
                "id": 95,
                "name": "Compost producer or supplier"
            }
        ]
    },
    {
        "users": [],
        "id": 3505,
        "name": "Tamarlane Farm",
        "description": "Tamarlane Farm produces farm fresh certified organic foods, including organic meat and organic vegetables, organic compost, and raw milk.",
        "products": "Organic raw milk, turkey, eggs, chicken, hay, mixed vegetables, beef, compost",
        "keywords": "Organic raw milk, Kingdom View Compost",
        "url": "http:\/\/www.thelyndonfreighthouse.com\/tamarlane-farm.php",
        "email": "info@thelyndonfreighthouse.com",
        "phone": "8026263265",
        "address": "2586 Pudding Hill Road",
        "city": "Lyndon",
        "state": "VT",
        "zip": "05851",
        "lat": 44.578918,
        "lon": -72.013359,
        "categories": [
            {
                "id": 12,
                "name": "Compost producer or supplier"
            },
            {
                "id": 95,
                "name": "Compost producer or supplier"
            }
        ]
    },
    {
        "users": [],
        "id": 3693,
        "name": "Twinflower Farm",
        "description": "",
        "products": "Compost, Scotch Highland cattle, beef",
        "keywords": "Scotch Highland cattle, Breeding stock",
        "url": "",
        "email": "",
        "phone": "(802) 439-5143",
        "address": "46 Currier Hill Road",
        "address2": "",
        "city": "Corinth",
        "state": "VT",
        "zip": "05040",
        "lat": 44.080872,
        "lon": -72.209877,
        "categories": [
            {
                "id": 12,
                "name": "Compost producer or supplier"
            }
        ]
    },
    {
        "users": [],
        "id": 4570,
        "name": "Vermont Compost Company",
        "description": "Vermont Compost Company was founded by organic crop growing professionals to meet the need for high quality composts and compost based, living soil mixes for certified organic plant production. We are committed to solving the sometimes difficult problems of producing vigorous plants in containers by organic methods.",
        "products": "Compost",
        "keywords": "Compost",
        "url": "http:\/\/vermontcompost.com\/",
        "phone": "(802) 223-6049",
        "address": "1996 Main Street",
        "city": "Montpelier",
        "state": "Vermont",
        "zip": "05602",
        "lat": 44.2729056,
        "lon": -72.5567524,
        "categories": [
            {
                "id": 12,
                "name": "Compost producer or supplier"
            },
            {
                "id": 95,
                "name": "Compost producer or supplier"
            }
        ]
    },
    {
        "users": [],
        "id": 4567,
        "name": "Wise Worm Compost",
        "description": "Compost facility that accepts food scraps, clean wood, and leaf and yard debris.",
        "phone": "(802) 467-3954",
        "address": "2550 Sugarhouse Road",
        "city": "Burke",
        "state": "Vermont",
        "zip": "05871",
        "lat": 44.6573769,
        "lon": -71.961799,
        "categories": [
            {
                "id": 12,
                "name": "Compost producer or supplier"
            },
            {
                "id": 95,
                "name": "Compost producer or supplier"
            }
        ]
    },
    {
        "users": [
            {
                "first_name": "Marie",
                "last_name": "Audet",
                "email": "bsf@gmavt.net",
                "phone": "8027582179"
            }
        ],
        "id": 321,
        "name": "Blue Spruce Farm",
        "description": "The Audet Family has operated Blue Spruce Farm since 1958 and currently milk about 2,500 cows that produce over 30 million pounds (3.6 million gallons) of milk per year. Blue Spruce Farm is the first farm in Vermont to have both a methane digester and a 100 kilowatt wind turbine.",
        "products": "Milk, compost, electricity",
        "keywords": "Cow power, milk, compost",
        "url": "http:\/\/www.bluesprucefarmvt.com\/",
        "email": "bluesprucefarmvt@gmail.com",
        "phone": "8027582179",
        "address": "1796 Route 22a",
        "city": "Bridport",
        "state": "VT",
        "zip": "05734",
        "lat": 44.0049959,
        "lon": -73.3083214,
        "categories": [
            {
                "id": 12,
                "name": "Compost producer or supplier"
            },
            {
                "id": 95,
                "name": "Compost producer or supplier"
            }
        ]
    },
    {
        "users": [
            {
                "first_name": "Carl",
                "last_name": "Cushing",
                "email": "vermontlivestocksandp@myfairpoint.net",
                "phone": "8028773421"
            }
        ],
        "id": 3841,
        "name": "Vermont Livestock Slaughter and Processing",
        "description": "VLS&P is a family-owned business whose goal is to provide our customers with the best quality and service possible. Our USDA-inspected facility is equipped to butcher and process beef, lamb and pork according to your specifications.",
        "products": "",
        "keywords": "",
        "url": "http:\/\/vermontmeat.com\/",
        "phone": "8028773421",
        "address": "76 Depot Road",
        "city": "Ferrisburgh",
        "state": "VT",
        "zip": "05456",
        "lat": 44.205868,
        "lon": -73.2521359,
        "categories": [
            {
                "id": 12,
                "name": "Compost producer or supplier"
            },
            {
                "id": 95,
                "name": "Compost producer or supplier"
            }
        ]
    },
    {
        "users": [
            {
                "first_name": "Megan",
                "last_name": "Duni",
                "title": "Communications & Operations",
                "bio": "Communications at Grow Compost of Vermont",
                "email": "megan@growcompost.com",
                "phone": "802-882-8154"
            }
        ],
        "id": 4245,
        "name": "Grow Compost of Vermont",
        "description": "Grow Compost of Vermont engages with our community \u2013 our farms, neighbors, and the natural work \u2013 to transform manures, farm residuals, food scraps, and other nutrient-rich, organic material into rich, fertile soil for the growth of verdant space, the production of organic food, and the health and well-being of the earth.",
        "products": "compost production, residential food scrap drop off, organics hauling, organic soils sales",
        "keywords": "compost, living soils, waste diversion, soil amendment, organic gardening",
        "url": "http:\/\/www.growcompost.com",
        "email": "megan@growcompost.com",
        "address": "2046 US Route 2",
        "city": "Moretown",
        "state": "Vermont",
        "zip": "05676",
        "lat": 44.310967286381,
        "lon": -72.715458869934,
        "categories": [
            {
                "id": 12,
                "name": "Compost producer or supplier"
            },
            {
                "id": 95,
                "name": "Compost producer or supplier"
            }
        ]
    },
    {
        "users": [
            {
                "first_name": "Robert",
                "last_name": "Foster",
                "title": "President",
                "bio": "Producer, recycler, small power producer, soil amendment producer, conservationist, UVM CALS Board, 25x25, Agri-Mark\/Cabot Board, Dairy Managment Sustainability Council and Task Force",
                "email": "rfoster@gmavt.net",
                "phone": "8023881137"
            }
        ],
        "id": 1263,
        "name": "Foster Brothers Farm\/Vermont Natural Ag Products",
        "description": "Foster Brothers is a fifth-generation dairy farm that also makes high quality compost.",
        "products": "",
        "keywords": "",
        "url": "http:\/\/www.vermontnaturalagproducts.com\/",
        "email": "rfoster@gmavt.net",
        "phone": "8023881137",
        "address": "297 Lower Foote Street",
        "city": "Middlebury",
        "state": "VT",
        "zip": "05753",
        "lat": 43.992607,
        "lon": -73.129715,
        "categories": [
            {
                "id": 12,
                "name": "Compost producer or supplier"
            },
            {
                "id": 95,
                "name": "Compost producer or supplier"
            }
        ]
    },
    {
        "users": [
            {
                "first_name": "Clare",
                "last_name": "Innes",
                "title": "Marketing & Communications Coordinator",
                "email": "cinnes@cswd.net",
                "phone": "802-872-8100 ext. 207"
            },
            {
                "first_name": "Michele",
                "last_name": "Morris",
                "bio": "Business Outreach Coordinator for the Chittenden Solid Waste District, working with all Chittenden County citizens, visitors and businesses to keep food scraps and other resources out of landfills and invested back into sustainable, healthy production systems.",
                "email": "mmorris@cswd.net",
                "phone": "802-872-8100 x237"
            }
        ],
        "id": 4239,
        "name": "Chittenden Solid Waste District",
        "description": "CSWD is charged with managing the flow of solid waste in Chittenden County. Part of that role involves keeping as much as possible out of the landfill. To that end, we own Green Mountain Compost, where we turn food scraps and yard debris into compost.",
        "products": "Green Mountain Compost",
        "keywords": "Green Mountain Compost",
        "url": "http:\/\/www.cswd.net",
        "email": "info@cswd.net",
        "phone": "802-872-8111",
        "address": "1021 Redmond Road",
        "city": "Williston",
        "state": "Vermont",
        "zip": "05495",
        "lat": 44.474548,
        "lon": -73.082352,
        "categories": [
            {
                "id": 12,
                "name": "Compost producer or supplier"
            },
            {
                "id": 95,
                "name": "Compost producer or supplier"
            }
        ]
    },
    {
        "users": [
            {
                "first_name": "James",
                "last_name": "Mcsweeney",
                "bio": "After receiving a BA in Agroecology from Prescott College\u2019s James worked in Hawaii in sustainable agriculture development, with a focus on applied organic soil remediation and microbiology research. As Highfields' Senior Compost Specialist, James provides technical services in composting to farmers, businesses, institutions, and communities, with a focus on scalable and appropriate technological solutions. In 2011, James developed and delivered Vermont\u2019s first Compost Operator Certification and has replicated the training now in its third year. James helped to found the grassroots organization Compost Power to advance compost heat recovery with other innovators, engineers, and hackers and is the lead designer in Highfields\u2019 ongoing compost heat recovery research & development work and collaborations.",
                "email": "james@highfieldscomposting.org",
                "phone": "802-224-6888"
            },
            {
                "first_name": "Alexander",
                "last_name": "Utevsky",
                "title": "Composting Technical Service Provider",
                "bio": "Composting Technical Service Provider\r\nSmall-scale grower\/grazer",
                "email": "alex@highfieldscomposting.org",
                "phone": "(802) 472-8880"
            }
        ],
        "id": 4486,
        "name": "Highfields Center for Composting",
        "description": "Our mission at Highfields is to Close the Loop on community-based, sustainable food and agricultural systems, thus addressing soil health, water quality, solid waste, farm viability, and climate change.\r\nWe research, educate, and provide technical services for composting and comprehensive food waste recycling programs.",
        "url": "http:\/\/www.highfieldscomposting.org",
        "email": "alex@highfieldscomposting.org",
        "phone": "802-472-8880",
        "address": "21 Mill St.",
        "address2": "P.O. Box 503",
        "city": "Hardwick",
        "state": "Vermont",
        "zip": "05843",
        "lat": 44.504539,
        "lon": -72.365623,
        "categories": [
            {
                "id": 12,
                "name": "Compost producer or supplier"
            }
        ]
    },
    {
        "users": [
            {
                "first_name": "Bonnie",
                "last_name": "Ott",
                "title": "manager",
                "email": "paris.bonnie@yahoo.com"
            }
        ],
        "id": 4224,
        "name": "The Freighthouse",
        "description": "We operate a farm-to-table cafe sourcing locally and sustainably; and serving in a setting that promotes eating locally and supporting your neighbors, reducing waste, and keeping the environment at the forefront.",
        "products": "organic meat, organic vegetables, organic compost, ice cream, soup, salads, sandwiches, coffee, desserts, breakfast, gifts",
        "keywords": "organic, farm to table, farm fresh, localvore, cafe, coffee, ice cream, organic meat, organic milk, organic cheese, organic ice cream, organic vegetables",
        "url": "http:\/\/www.thelyndonfreighthouse.com",
        "email": "info@thelyndonfreighthouse.com",
        "phone": "802-626-1400",
        "address": "1000 Broad St",
        "city": "Lyndonville",
        "state": "Vermont",
        "zip": "05851",
        "lat": 44.533533,
        "lon": -72.002619,
        "categories": [
            {
                "id": 12,
                "name": "Compost producer or supplier"
            }
        ]
    },
    {
        "users": [
            {
                "first_name": "Lynn Ellen",
                "last_name": "Schimoler",
                "title": "Store Manager",
                "email": "lynnellen@citymarket.coop"
            },
            {
                "first_name": "Allison",
                "last_name": "Weinhagen",
                "email": "aweinhagen@citymarket.coop"
            }
        ],
        "id": 4248,
        "name": "City Market, Onion River Cooperative",
        "description": "Supports revenue generating departments : (Produce, Meat & Seafood, Beer & Wine, Bodycare & Supplements, Frozen, Perishables\/Dairy, Grocery Dry Goods, Bulk, Prepared Foods and Bakery).Collaborates with Merchandising team to select, purchase and provide  locally produced\/grown foods. to our members and customers.",
        "url": "http:\/\/www.citymarket.coop",
        "email": "lynnellen@citymarket.coop",
        "phone": "802-861-9751",
        "address": "82 South Winooski Avenue",
        "city": "Burlington",
        "state": "Vermont",
        "zip": "05401",
        "lat": 44.4781819,
        "lon": -73.21023,
        "categories": [
            {
                "id": 12,
                "name": "Compost producer or supplier"
            },
            {
                "id": 95,
                "name": "Compost producer or supplier"
            }
        ]
    },
    {
        "users": [
            {
                "first_name": "Paul",
                "last_name": "Tomasi",
                "title": "Executive Director",
                "bio": "The Northeast Kingdom Waste Management District represents 48 towns throughout Vermont's Northeast Kingdom. We work with several composters throughout the area to divert food scraps from landfill disposal. We've established 7 sites for food scrap collection and hope to have more this fall.",
                "email": "director@nekwmd.org",
                "phone": "802-626-3532"
            }
        ],
        "id": 4266,
        "name": "Northeast Kingdom Waste Management District",
        "description": "The NEKWMD supports the local food system by collecting food scraps for composting at 7 recycling centers throughout the Northeast Kingdom.",
        "products": "Compost collection and input supplier",
        "url": "http:\/\/www.nekwmd.org",
        "email": "director@nekwmd.org",
        "phone": "802-626-3532",
        "address": "224 Church Street",
        "address2": "PO Box 1075",
        "city": "Lyndonville",
        "state": "Vermont",
        "zip": "05851",
        "lat": 44.538011,
        "lon": -72.0013,
        "categories": [
            {
                "id": 12,
                "name": "Compost producer or supplier"
            },
            {
                "id": 95,
                "name": "Compost producer or supplier"
            }
        ]
    }
]
