[
    {
        "users": [],
        "id": 4362,
        "name": "Addison Community Action\/CVOEO",
        "description": "",
        "products": "",
        "keywords": "",
        "url": "http:\/\/www.cvoeo.org\/htm\/community_action\/Addison.html",
        "email": "",
        "phone": "",
        "address": "700 Exchange Street",
        "address2": "Suite 107",
        "city": "Middlebury",
        "state": "VT",
        "zip": "05753",
        "lat": 44.028878,
        "lon": -73.17041,
        "categories": [
            {
                "id": 102,
                "name": "Food Bank \/ pantry \/ shelf"
            }
        ]
    },
    {
        "users": [],
        "id": 4325,
        "name": "AIDS Project of Southern Vermont",
        "description": "",
        "products": "",
        "keywords": "",
        "url": "http:\/\/www.aidsprojectsouthernvermont.org",
        "email": "",
        "phone": "",
        "address": "324 Main Street",
        "address2": "",
        "city": "Bennington",
        "state": "VT",
        "zip": "05201",
        "lat": 42.879009,
        "lon": -73.197975,
        "categories": [
            {
                "id": 102,
                "name": "Food Bank \/ pantry \/ shelf"
            }
        ]
    },
    {
        "users": [],
        "id": 4332,
        "name": "AIDS Project of Southern Vermont",
        "description": "",
        "products": "",
        "keywords": "",
        "url": "",
        "email": "",
        "phone": "",
        "address": "15 Grove St",
        "address2": "",
        "city": "Brattleboro",
        "state": "VT",
        "zip": "05302",
        "lat": 42.8547946,
        "lon": -72.5599081,
        "categories": [
            {
                "id": 102,
                "name": "Food Bank \/ pantry \/ shelf"
            }
        ]
    },
    {
        "users": [],
        "id": 4316,
        "name": "Arlington Food Shelf",
        "description": "",
        "products": "",
        "keywords": "",
        "url": "",
        "email": "",
        "phone": "",
        "address": "165 Old Mill Road",
        "address2": "",
        "city": "Arlington",
        "state": "VT",
        "zip": "05250",
        "lat": 43.060785,
        "lon": -73.142025,
        "categories": [
            {
                "id": 102,
                "name": "Food Bank \/ pantry \/ shelf"
            }
        ]
    },
    {
        "users": [],
        "id": 4320,
        "name": "Barre Baptist Fellowship",
        "description": "",
        "products": "",
        "keywords": "",
        "url": "",
        "email": "",
        "phone": "",
        "address": "84 Summer Street",
        "address2": "",
        "city": "Barre",
        "state": "VT",
        "zip": "05641",
        "lat": 44.2016485,
        "lon": -72.5049666,
        "categories": [
            {
                "id": 102,
                "name": "Food Bank \/ pantry \/ shelf"
            }
        ]
    },
    {
        "users": [],
        "id": 4318,
        "name": "Barre Evangelical Free Church",
        "description": "",
        "products": "",
        "keywords": "",
        "url": "",
        "email": "",
        "phone": "",
        "address": "17 South Main Street",
        "address2": "",
        "city": "Barre",
        "state": "VT",
        "zip": "05641",
        "lat": 44.1956715,
        "lon": -72.5012466,
        "categories": [
            {
                "id": 102,
                "name": "Food Bank \/ pantry \/ shelf"
            }
        ]
    },
    {
        "users": [],
        "id": 4285,
        "name": "Barre Salvation Army",
        "description": "The Barre Salvation Army operates an emergency food shelf and a soup kitchen Monday, Wednesday, and Friday from 11:45am to 1pm.",
        "keywords": "Soup kitchen",
        "url": "http:\/\/www.use.salvationarmy.org\/barre",
        "phone": "(802) 476-5301",
        "address": "25 Keith Avenue",
        "city": "Barre",
        "state": "Vermont",
        "zip": "05641",
        "lat": 44.198875,
        "lon": -72.501205,
        "categories": [
            {
                "id": 102,
                "name": "Food Bank \/ pantry \/ shelf"
            }
        ]
    },
    {
        "users": [],
        "id": 4326,
        "name": "Bennington Food Shelf (BROC)",
        "description": "",
        "products": "",
        "keywords": "",
        "url": "http:\/\/www.broc.org",
        "email": "",
        "phone": "",
        "address": "332 Orchard Road",
        "address2": "",
        "city": "Bennington",
        "state": "VT",
        "zip": "05201",
        "lat": 42.900627,
        "lon": -73.202545,
        "categories": [
            {
                "id": 102,
                "name": "Food Bank \/ pantry \/ shelf"
            }
        ]
    },
    {
        "users": [],
        "id": 4380,
        "name": "BERMMA",
        "description": "",
        "products": "",
        "keywords": "",
        "url": "",
        "email": "",
        "phone": "",
        "address": "13 River Street",
        "address2": "",
        "city": "Richford",
        "state": "VT",
        "zip": "05476",
        "lat": 44.9970004,
        "lon": -72.671215,
        "categories": [
            {
                "id": 102,
                "name": "Food Bank \/ pantry \/ shelf"
            }
        ]
    },
    {
        "users": [],
        "id": 4302,
        "name": "Bethel Area Food Shelf",
        "description": "The mission of the Bethel Food Shelf is to provide supplemental and emergency food assistance to Barnard, Bethel, Gaysville, Pittsfield, and Stockbridge, Vermont residents in need.\r\n\r\nPantry hours: Monday: 12pm -2pm and Wednesdays 4pm -6pm.",
        "url": "http:\/\/bethelfoodshelf.org\/",
        "phone": "(802) 234-9988",
        "address": "129 Church Street",
        "city": "Bethel",
        "state": "Vermont",
        "zip": "05032",
        "lat": 43.831352,
        "lon": -72.636069,
        "categories": [
            {
                "id": 102,
                "name": "Food Bank \/ pantry \/ shelf"
            }
        ]
    },
    {
        "users": [],
        "id": 4323,
        "name": "Bible Baptist Food Basket",
        "description": "",
        "products": "",
        "keywords": "",
        "url": "",
        "email": "",
        "phone": "",
        "address": "1425 Harwood Hill",
        "address2": "",
        "city": "Bennington",
        "state": "VT",
        "zip": "05201",
        "lat": 42.921669,
        "lon": -73.210022,
        "categories": [
            {
                "id": 102,
                "name": "Food Bank \/ pantry \/ shelf"
            }
        ]
    },
    {
        "users": [],
        "id": 4359,
        "name": "Black River Good Neighbor",
        "description": "",
        "products": "",
        "keywords": "",
        "url": "http:\/\/www.brgn.org\/",
        "email": "",
        "phone": "",
        "address": "37B Main Street",
        "address2": "",
        "city": "Ludlow",
        "state": "VT",
        "zip": "05149",
        "lat": 43.39703,
        "lon": -72.687451,
        "categories": [
            {
                "id": 102,
                "name": "Food Bank \/ pantry \/ shelf"
            }
        ]
    },
    {
        "users": [],
        "id": 4329,
        "name": "Bradford Churches Food Shelf",
        "description": "",
        "products": "",
        "keywords": "",
        "url": "",
        "email": "",
        "phone": "",
        "address": "172 Main Street",
        "address2": "",
        "city": "Bradford",
        "state": "VT",
        "zip": "05033",
        "lat": 43.994472,
        "lon": -72.127992,
        "categories": [
            {
                "id": 102,
                "name": "Food Bank \/ pantry \/ shelf"
            }
        ]
    },
    {
        "users": [],
        "id": 4300,
        "name": "Brattleboro Area Drop-In Center",
        "description": "The Brattleboro Area Drop In Center is a day shelter open to all persons within the Brattleboro area. We offer a welcoming atmosphere, community food shelf, support services, and a place where homeless and lonely persons can come.",
        "url": "http:\/\/www.brattleborodropin.org\/",
        "phone": "(802) 257-5415",
        "address": "60 South Main Street",
        "city": "Brattleboro",
        "state": "Vermont",
        "zip": "05302",
        "lat": 42.84897,
        "lon": -72.55662,
        "categories": [
            {
                "id": 102,
                "name": "Food Bank \/ pantry \/ shelf"
            }
        ]
    },
    {
        "users": [],
        "id": 4354,
        "name": "Brighton Community Meal",
        "description": "",
        "products": "",
        "keywords": "",
        "url": "",
        "email": "",
        "phone": "",
        "address": "825 Railroad Street",
        "address2": "",
        "city": "Island Pond",
        "state": "VT",
        "zip": "05846",
        "lat": 44.821724,
        "lon": -71.8936839,
        "categories": [
            {
                "id": 102,
                "name": "Food Bank \/ pantry \/ shelf"
            }
        ]
    },
    {
        "users": [],
        "id": 4333,
        "name": "Brigid's Kitchen",
        "description": "",
        "products": "",
        "keywords": "",
        "url": "",
        "email": "",
        "phone": "",
        "address": "19 Walnut Street",
        "address2": "",
        "city": "Brattleboro",
        "state": "VT",
        "zip": "05301",
        "lat": 42.8558729,
        "lon": -72.5596214,
        "categories": [
            {
                "id": 102,
                "name": "Food Bank \/ pantry \/ shelf"
            }
        ]
    },
    {
        "users": [],
        "id": 4282,
        "name": "BROC Rutland Food Shelf",
        "description": "BROC's Rutland Food Shelf provides commodities to help many people to avoid running out of food from month to month. Commodities include food items such as canned vegetables and fruits, packaged fruits, pasta products, cereals, peanut butter, dry milk and more. Items will vary during the year. Income eligible households can receive commodities on a monthly basis.\r\n\r\nNutrition Education is offered, including one to one counseling. We use a curriculum called \"Financial Fitness\" that emphasizes basic budgeting, family communication around spending decisions and smart shopping. This information and instruction is aimed at helping people more effectively meet their family's nutritional needs by using their financial resources carefully.",
        "url": "http:\/\/www.broc.org\/foodshelf.php",
        "phone": "(802) 775-0878",
        "address": "72 Wales Street",
        "city": "Rutland",
        "state": "Vermont",
        "zip": "05701",
        "lat": 43.605789,
        "lon": -72.977341,
        "categories": [
            {
                "id": 102,
                "name": "Food Bank \/ pantry \/ shelf"
            }
        ]
    },
    {
        "users": [],
        "id": 4291,
        "name": "Burlington Salvation Army",
        "description": "Meals are offered to anyone in need Monday - Saturday at 5:00-6:00pm. Meals are often prepared by groups, churches, companies and individuals; bringing food or preparing on site. Preparation time begins usually at 4pm.\r\n\r\nThe Food Pantry is open by appointment Monday through Friday, 9:00am to 12:00 noon. For an appointment please call Captain William Thompson at (802) 864-6991 or by email.",
        "url": "http:\/\/use.salvationarmy.org\/greaterburlington",
        "email": "William.Thompson@use.salvationarmy.org",
        "phone": "(802) 864-6991 x100",
        "address": "64 Main Street",
        "city": "Burlington",
        "state": "Vermont",
        "zip": "05401",
        "lat": 44.47607,
        "lon": -73.216843,
        "categories": [
            {
                "id": 102,
                "name": "Food Bank \/ pantry \/ shelf"
            }
        ]
    },
    {
        "users": [],
        "id": 4360,
        "name": "Calvary Chapel",
        "description": "",
        "products": "",
        "keywords": "",
        "url": "",
        "email": "",
        "phone": "",
        "address": "165 Park Ave",
        "address2": "",
        "city": "Lyndonville",
        "state": "VT",
        "zip": "05850",
        "lat": 44.5364175,
        "lon": -72.0062316,
        "categories": [
            {
                "id": 102,
                "name": "Food Bank \/ pantry \/ shelf"
            }
        ]
    },
    {
        "users": [],
        "id": 4356,
        "name": "Cambridge Food Shelf",
        "description": "",
        "products": "",
        "keywords": "",
        "url": "http:\/\/cambridgefoodshelf.org",
        "email": "",
        "phone": "",
        "address": "16 Church Street",
        "address2": "",
        "city": "Cambridge",
        "state": "VT",
        "zip": "05444",
        "lat": 44.644066,
        "lon": -72.829971,
        "categories": [
            {
                "id": 102,
                "name": "Food Bank \/ pantry \/ shelf"
            }
        ]
    },
    {
        "users": [],
        "id": 4313,
        "name": "Charlotte Food Shelf",
        "description": "The Charlotte Food Shelf and Assistance is open from 7:30 to 9:30am on Thursdays.",
        "url": "https:\/\/sites.google.com\/site\/charlottefoodshelfvt\/",
        "phone": "(802) 598-0410",
        "address": "421 Church Hill Road",
        "city": "Charlotte",
        "state": "Vermont",
        "zip": "05445",
        "lat": 44.314777,
        "lon": -73.240135,
        "categories": [
            {
                "id": 102,
                "name": "Food Bank \/ pantry \/ shelf"
            }
        ]
    },
    {
        "users": [],
        "id": 4340,
        "name": "Chester-Andover Family Center",
        "description": "",
        "products": "",
        "keywords": "",
        "url": "",
        "email": "",
        "phone": "",
        "address": "908 Route 103 South",
        "address2": "",
        "city": "Chester",
        "state": "VT",
        "zip": "05143",
        "lat": 43.251438,
        "lon": -72.5775759,
        "categories": [
            {
                "id": 102,
                "name": "Food Bank \/ pantry \/ shelf"
            }
        ]
    },
    {
        "users": [],
        "id": 4289,
        "name": "Chittenden Emergency Food Shelf",
        "description": "The Chittenden Emergency Food Shelf works to alleviate hunger by feeding people and cultivating opportunities. As the largest direct service emergency food provider in Vermont, CEFS serves over 12,000 people each year.\r\n\r\nThe CEFS food shelf is open from 9:00am to 4:00pm, Monday through Friday.",
        "url": "http:\/\/www.feedingchittenden.org\/",
        "phone": "(802) 658-7939",
        "address": "228 North Winooski Avenue",
        "city": "Burlington",
        "state": "Vermont",
        "zip": "05401",
        "lat": 44.486269,
        "lon": -73.20935,
        "categories": [
            {
                "id": 102,
                "name": "Food Bank \/ pantry \/ shelf"
            }
        ]
    },
    {
        "users": [],
        "id": 4366,
        "name": "Christ Church Food Shelf",
        "description": "",
        "products": "",
        "keywords": "",
        "url": "",
        "email": "",
        "phone": "",
        "address": "64 State Street",
        "address2": "",
        "city": "Montpelier",
        "state": "VT",
        "zip": "05602",
        "lat": 44.260291,
        "lon": -72.577634,
        "categories": [
            {
                "id": 102,
                "name": "Food Bank \/ pantry \/ shelf"
            }
        ]
    },
    {
        "users": [],
        "id": 4342,
        "name": "Colchester Community Food Shelf",
        "description": "",
        "products": "",
        "keywords": "",
        "url": "http:\/\/www.colchesterfoodshelf.org\/",
        "email": "",
        "phone": "",
        "address": "245 Main Street",
        "address2": "",
        "city": "Colchester",
        "state": "VT",
        "zip": "05446",
        "lat": 44.548791,
        "lon": -73.160766,
        "categories": [
            {
                "id": 102,
                "name": "Food Bank \/ pantry \/ shelf"
            }
        ]
    },
    {
        "users": [],
        "id": 4331,
        "name": "Community Bible Chapel",
        "description": "",
        "products": "",
        "keywords": "",
        "url": "",
        "email": "",
        "phone": "",
        "address": "107 Atwood St",
        "address2": "",
        "city": "Brattleboro",
        "state": "VT",
        "zip": "05301",
        "lat": 42.8349087,
        "lon": -72.5633216,
        "categories": [
            {
                "id": 102,
                "name": "Food Bank \/ pantry \/ shelf"
            }
        ]
    },
    {
        "users": [],
        "id": 757,
        "name": "Community Emergency Relief Volunteers (CERV)",
        "description": "",
        "products": "",
        "keywords": "",
        "url": "https:\/\/sites.google.com\/site\/cervinnorthfieldvermont\/",
        "email": "",
        "phone": "8024854293",
        "address": "31 Dog River Drive",
        "address2": "",
        "city": "Northfield",
        "state": "VT",
        "zip": "05663",
        "lat": 44.1609,
        "lon": -72.657166,
        "categories": [
            {
                "id": 102,
                "name": "Food Bank \/ pantry \/ shelf"
            }
        ]
    },
    {
        "users": [],
        "id": 4374,
        "name": "Community Emergency Relief Volunteers (CERV)",
        "description": "",
        "products": "",
        "keywords": "",
        "url": "https:\/\/sites.google.com\/site\/cervinnorthfieldvermont\/",
        "email": "",
        "phone": "",
        "address": "31 Dog River Drive",
        "address2": "",
        "city": "Northfield",
        "state": "VT",
        "zip": "05663",
        "lat": 44.160783,
        "lon": -72.657098,
        "categories": [
            {
                "id": 102,
                "name": "Food Bank \/ pantry \/ shelf"
            }
        ]
    },
    {
        "users": [],
        "id": 4308,
        "name": "Community Food Cupboard",
        "description": "he Community Food Cupboard, provides nutritious food to people in need in the Northshire. Food is distributed each Tuesday from 10:00 a.m. until noon, and 2:00pm until 4:00 and Wednesday from 2:00pm until 4:00pm.",
        "url": "http:\/\/communityfoodcupboard.org\/",
        "phone": "(802) 645-9211",
        "address": "6039 Main Street",
        "city": "Manchester",
        "state": "Vermont",
        "zip": "05255",
        "lat": 43.188904,
        "lon": -73.043884,
        "categories": [
            {
                "id": 102,
                "name": "Food Bank \/ pantry \/ shelf"
            }
        ]
    },
    {
        "users": [],
        "id": 4287,
        "name": "CVCAC Barre Food Shelf",
        "description": "Partnerships with the Vermont Foodbank and Food Works at Two Rivers Center provide access to a variety of staples, canned goods, dairy products, some meats and fresh produce in season. Private donations of food items help support our efforts as do gifts of cash that help defray costs of food purchases.\r\n\r\nThe food shelf is open Monday, Wednesday, and Friday from 9am to noon and 1-3pm.",
        "keywords": "Central Vermont Community Action",
        "url": "http:\/\/www.cvcac.org\/finding-a-food-shelf",
        "phone": "(802) 479-1053",
        "address": "20 Gable Place",
        "city": "Barre",
        "state": "Vermont",
        "zip": "05641",
        "lat": 44.199781987512,
        "lon": -72.506418228149,
        "categories": [
            {
                "id": 102,
                "name": "Food Bank \/ pantry \/ shelf"
            }
        ]
    },
    {
        "users": [],
        "id": 4343,
        "name": "Danville Ecumenical Community Center Food Shelf",
        "description": "",
        "products": "",
        "keywords": "",
        "url": "",
        "email": "",
        "phone": "",
        "address": "29 Hill Street",
        "address2": "",
        "city": "Danville",
        "state": "VT",
        "zip": "05828",
        "lat": 44.411916,
        "lon": -72.140463,
        "categories": [
            {
                "id": 102,
                "name": "Food Bank \/ pantry \/ shelf"
            }
        ]
    },
    {
        "users": [],
        "id": 935,
        "name": "Deerfield Valley Food Pantry",
        "description": "",
        "products": "",
        "keywords": "",
        "url": "http:\/\/www.deerfieldvalleyfoodpantry.com\/",
        "email": "",
        "phone": "8024640148",
        "address": "7 Church St",
        "address2": "",
        "city": "Newfane",
        "state": "VT",
        "zip": "05345",
        "lat": 42.985664,
        "lon": -72.656593,
        "categories": [
            {
                "id": 102,
                "name": "Food Bank \/ pantry \/ shelf"
            }
        ]
    },
    {
        "users": [],
        "id": 4344,
        "name": "East Barre Congregational Church",
        "description": "",
        "products": "",
        "keywords": "",
        "url": "",
        "email": "",
        "phone": "",
        "address": "2 Church St",
        "address2": "",
        "city": "Barre",
        "state": "VT",
        "zip": "05649",
        "lat": 44.1586461,
        "lon": -72.4523776,
        "categories": [
            {
                "id": 102,
                "name": "Food Bank \/ pantry \/ shelf"
            }
        ]
    },
    {
        "users": [],
        "id": 4346,
        "name": "Enosburg Food Shelf",
        "description": "",
        "products": "",
        "keywords": "",
        "url": "",
        "email": "",
        "phone": "",
        "address": "21 Missisquoi Street",
        "address2": "",
        "city": "Enosburg Falls",
        "state": "VT",
        "zip": "05450",
        "lat": 44.907188,
        "lon": -72.804649,
        "categories": [
            {
                "id": 102,
                "name": "Food Bank \/ pantry \/ shelf"
            }
        ]
    },
    {
        "users": [],
        "id": 4357,
        "name": "Essex-Jericho-Underhill Ecumenical Food Shelf",
        "description": "",
        "products": "",
        "keywords": "",
        "url": "http:\/\/unitedchurchofunderhill.com\/serve\/food-shelf\/",
        "email": "",
        "phone": "",
        "address": "273 VT Route 15",
        "address2": "",
        "city": "Jericho",
        "state": "VT",
        "zip": "05465",
        "lat": 44.512134,
        "lon": -72.957583,
        "categories": [
            {
                "id": 102,
                "name": "Food Bank \/ pantry \/ shelf"
            }
        ]
    },
    {
        "users": [],
        "id": 4345,
        "name": "Fairfield Community Center",
        "description": "",
        "products": "",
        "keywords": "",
        "url": "http:\/\/www.fairfieldcommunitycenter.blogspot.com\/",
        "email": "",
        "phone": "",
        "address": "124 School Street",
        "address2": "",
        "city": "Fairfield",
        "state": "VT",
        "zip": "05448",
        "lat": 44.7843779,
        "lon": -72.8591126,
        "categories": [
            {
                "id": 102,
                "name": "Food Bank \/ pantry \/ shelf"
            }
        ]
    },
    {
        "users": [],
        "id": 4338,
        "name": "Faith In Action Northern Communities Partnership",
        "description": "",
        "products": "",
        "keywords": "",
        "url": "http:\/\/fiancp.org\/",
        "email": "",
        "phone": "",
        "address": "3339 Main Street",
        "address2": "",
        "city": "Cabot",
        "state": "VT",
        "zip": "05647",
        "lat": 44.4055137,
        "lon": -72.3088017,
        "categories": [
            {
                "id": 102,
                "name": "Food Bank \/ pantry \/ shelf"
            }
        ]
    },
    {
        "users": [],
        "id": 4382,
        "name": "Federated Church of Rochester",
        "description": "",
        "products": "",
        "keywords": "",
        "url": "",
        "email": "",
        "phone": "",
        "address": "15 North Main Street",
        "address2": "",
        "city": "Rochester",
        "state": "VT",
        "zip": "05767",
        "lat": 43.874676,
        "lon": -72.808777,
        "categories": [
            {
                "id": 102,
                "name": "Food Bank \/ pantry \/ shelf"
            }
        ]
    },
    {
        "users": [],
        "id": 1251,
        "name": "Food Share",
        "description": "",
        "products": "",
        "keywords": "",
        "url": "http:\/\/www.lcfoodshare.org\/Welcome.html",
        "email": "lcfoodshare@gmail.com",
        "phone": "8028886550",
        "address": "197 Harrel St",
        "address2": "",
        "city": "Morristown",
        "state": "VT",
        "zip": "05661",
        "lat": 44.569187,
        "lon": -72.5932629,
        "categories": [
            {
                "id": 102,
                "name": "Food Bank \/ pantry \/ shelf"
            }
        ]
    },
    {
        "users": [],
        "id": 4311,
        "name": "Franklin\/Grand Isle Community Action (FGICA)",
        "description": "The hours are 1:00 p.m. to 4:30 p.m. Monday through Friday except holidays. Over 450 families receive a 3 day supply of emergency food each month. FGICA also operates food shelves at their outreach offices in Richford and Grand Isle.",
        "keywords": "CVOEO",
        "url": "http:\/\/www.cvoeo.org\/htm\/community_action\/franklin-grand-isle.html",
        "phone": "(802) 527-7392",
        "address": "5 Lemnah Drive",
        "city": "St. Albans",
        "state": "Vermont",
        "zip": "05478",
        "lat": 44.804644,
        "lon": -73.089212,
        "categories": [
            {
                "id": 102,
                "name": "Food Bank \/ pantry \/ shelf"
            }
        ]
    },
    {
        "users": [],
        "id": 4389,
        "name": "Georgia Food Shelf",
        "description": "",
        "products": "",
        "keywords": "",
        "url": "",
        "email": "",
        "phone": "",
        "address": "1697 Ethan Allen Highway",
        "address2": "",
        "city": "Georgia",
        "state": "VT",
        "zip": "05468",
        "lat": 44.703182,
        "lon": -73.105309,
        "categories": [
            {
                "id": 102,
                "name": "Food Bank \/ pantry \/ shelf"
            }
        ]
    },
    {
        "users": [],
        "id": 4327,
        "name": "Green Mountain Christian Center",
        "description": "",
        "products": "",
        "keywords": "",
        "url": "",
        "email": "",
        "phone": "",
        "address": "440 Main Street",
        "address2": "",
        "city": "Bennington",
        "state": "VT",
        "zip": "05201",
        "lat": 42.87841,
        "lon": -73.19577,
        "categories": [
            {
                "id": 102,
                "name": "Food Bank \/ pantry \/ shelf"
            }
        ]
    },
    {
        "users": [],
        "id": 4348,
        "name": "Guilford Food Pantry",
        "description": "",
        "products": "",
        "keywords": "",
        "url": "",
        "email": "",
        "phone": "",
        "address": "3940 Guilford Center Road",
        "address2": "",
        "city": "Guilford",
        "state": "VT",
        "zip": "05301",
        "lat": 42.793666,
        "lon": -72.624535,
        "categories": [
            {
                "id": 102,
                "name": "Food Bank \/ pantry \/ shelf"
            }
        ]
    },
    {
        "users": [],
        "id": 4297,
        "name": "Hardwick Area Food Pantry",
        "description": "Food pantry.",
        "phone": "(802) 793-6741",
        "address": "39 West Church Street",
        "city": "Hardwick",
        "state": "Vermont",
        "zip": "05843",
        "lat": 44.505959606096,
        "lon": -72.365741729736,
        "categories": [
            {
                "id": 102,
                "name": "Food Bank \/ pantry \/ shelf"
            }
        ]
    },
    {
        "users": [],
        "id": 4350,
        "name": "Hartland Food Shelf",
        "description": "",
        "products": "",
        "keywords": "",
        "url": "",
        "email": "",
        "phone": "",
        "address": "8 Brownsville Road",
        "address2": "",
        "city": "Hartland",
        "state": "VT",
        "zip": "05048",
        "lat": 43.545807,
        "lon": -72.42573,
        "categories": [
            {
                "id": 102,
                "name": "Food Bank \/ pantry \/ shelf"
            }
        ]
    },
    {
        "users": [],
        "id": 4347,
        "name": "Heavenly Food Pantry",
        "description": "",
        "products": "",
        "keywords": "",
        "url": "",
        "email": "",
        "phone": "",
        "address": "39 Main Street",
        "address2": "",
        "city": "Essex Junction",
        "state": "VT",
        "zip": "05452",
        "lat": 44.491452,
        "lon": -73.107989,
        "categories": [
            {
                "id": 102,
                "name": "Food Bank \/ pantry \/ shelf"
            }
        ]
    },
    {
        "users": [],
        "id": 4319,
        "name": "Hedding United Methodist Church",
        "description": "",
        "products": "",
        "keywords": "",
        "url": "",
        "email": "",
        "phone": "",
        "address": "40 Washington Street",
        "address2": "",
        "city": "Barre",
        "state": "VT",
        "zip": "05641",
        "lat": 44.1965285,
        "lon": -72.4996122,
        "categories": [
            {
                "id": 102,
                "name": "Food Bank \/ pantry \/ shelf"
            }
        ]
    },
    {
        "users": [],
        "id": 4337,
        "name": "Hilltop Light Ministries",
        "description": "",
        "products": "",
        "keywords": "",
        "url": "",
        "email": "",
        "phone": "",
        "address": "421 Shelburne Road",
        "address2": "",
        "city": "Burlington",
        "state": "VT",
        "zip": "05401",
        "lat": 44.453735,
        "lon": -73.209129,
        "categories": [
            {
                "id": 102,
                "name": "Food Bank \/ pantry \/ shelf"
            }
        ]
    },
    {
        "users": [],
        "id": 4351,
        "name": "Hinesburg Food Shelf",
        "description": "",
        "products": "",
        "keywords": "",
        "url": "http:\/\/www.hinesburg.org\/hfs.html",
        "email": "",
        "phone": "",
        "address": "51 Ballards Corner Road",
        "address2": "",
        "city": "Hinesburg",
        "state": "VT",
        "zip": "05461",
        "lat": 44.340956,
        "lon": -73.117918,
        "categories": [
            {
                "id": 102,
                "name": "Food Bank \/ pantry \/ shelf"
            }
        ]
    },
    {
        "users": [],
        "id": 4324,
        "name": "His Pantry\/Sacred Heart",
        "description": "",
        "products": "",
        "keywords": "",
        "url": "",
        "email": "",
        "phone": "",
        "address": "238 West Main Street",
        "address2": "",
        "city": "Bennington",
        "state": "VT",
        "zip": "05250",
        "lat": 42.880713,
        "lon": -73.201701,
        "categories": [
            {
                "id": 102,
                "name": "Food Bank \/ pantry \/ shelf"
            }
        ]
    },
    {
        "users": [],
        "id": 4283,
        "name": "HOPE - Helping Overcome Poverty's Effects",
        "description": "HOPE provides community-based poverty relief services to Addison County residents. Our programs include a food shelf, a farmer supported produce gleaning operation, low-income housing development, and Retro-Works, a charity resale shop and warehouse.",
        "url": "https:\/\/www.facebook.com\/hopevt.org",
        "phone": "(802) 388-3608",
        "address": "282 Boardman Street",
        "city": "Middlebury",
        "state": "Vermont",
        "zip": "05753",
        "lat": 44.000126,
        "lon": -73.143944,
        "categories": [
            {
                "id": 102,
                "name": "Food Bank \/ pantry \/ shelf"
            }
        ]
    },
    {
        "users": [],
        "id": 4352,
        "name": "Hubbardton-Castleton Food Center",
        "description": "",
        "products": "",
        "keywords": "",
        "url": "",
        "email": "",
        "phone": "",
        "address": "1851 Monument Hill Road",
        "address2": "",
        "city": "Hubbarton",
        "state": "VT",
        "zip": "05735",
        "lat": 43.7174193,
        "lon": -73.1581163,
        "categories": [
            {
                "id": 102,
                "name": "Food Bank \/ pantry \/ shelf"
            }
        ]
    },
    {
        "users": [],
        "id": 4353,
        "name": "Island Pond Food Shelf",
        "description": "",
        "products": "",
        "keywords": "",
        "url": "",
        "email": "",
        "phone": "",
        "address": "21 Middle Street",
        "address2": "",
        "city": "Island Pond",
        "state": "VT",
        "zip": "05846",
        "lat": 44.816754,
        "lon": -71.881606,
        "categories": [
            {
                "id": 102,
                "name": "Food Bank \/ pantry \/ shelf"
            }
        ]
    },
    {
        "users": [],
        "id": 4312,
        "name": "Johnson Food Shelf",
        "description": "Open Tuesdays and Fridays 9:00am to 12:00pm",
        "url": "http:\/\/townofjohnson.com\/",
        "phone": "(802) 635-9003",
        "address": "661 Railroad Street",
        "city": "Johnson",
        "state": "Vermont",
        "zip": "05656",
        "lat": 44.630253,
        "lon": -72.691833,
        "categories": [
            {
                "id": 102,
                "name": "Food Bank \/ pantry \/ shelf"
            }
        ]
    },
    {
        "users": [],
        "id": 4385,
        "name": "Journey Church",
        "description": "",
        "products": "",
        "keywords": "",
        "url": "",
        "email": "",
        "phone": "",
        "address": "412 South Windsor Street",
        "address2": "",
        "city": "South Royalton",
        "state": "VT",
        "zip": "05068",
        "lat": 43.816611,
        "lon": -72.515644,
        "categories": [
            {
                "id": 102,
                "name": "Food Bank \/ pantry \/ shelf"
            }
        ]
    },
    {
        "users": [],
        "id": 4388,
        "name": "Kingdom Community Services",
        "description": "",
        "products": "",
        "keywords": "",
        "url": "",
        "email": "",
        "phone": "",
        "address": "36 Steeple Place",
        "address2": "",
        "city": "St. Johnsbury",
        "state": "VT",
        "zip": "05819",
        "lat": 44.421049,
        "lon": -72.020002,
        "categories": [
            {
                "id": 102,
                "name": "Food Bank \/ pantry \/ shelf"
            }
        ]
    },
    {
        "users": [],
        "id": 4328,
        "name": "Kitchen Cupboard",
        "description": "",
        "products": "",
        "keywords": "",
        "url": "",
        "email": "",
        "phone": "",
        "address": "800 Gage Street",
        "address2": "",
        "city": "Bennington",
        "state": "VT",
        "zip": "05201",
        "lat": 42.881394,
        "lon": -73.180981,
        "categories": [
            {
                "id": 102,
                "name": "Food Bank \/ pantry \/ shelf"
            }
        ]
    },
    {
        "users": [],
        "id": 4288,
        "name": "Lamoille Community Food Share",
        "description": "We are a nonprofit group of volunteers dedicated to providing food security for our friends and neighbors in and around Lamoille County. We supply our pantry through donations  of food and cash.",
        "url": "http:\/\/www.lcfoodshare.org\/",
        "phone": "(802) 888-6550",
        "address": "197 Harrell Street",
        "city": "Morristown",
        "state": "Vermont",
        "zip": "05661",
        "lat": 44.569187,
        "lon": -72.5932629,
        "categories": [
            {
                "id": 102,
                "name": "Food Bank \/ pantry \/ shelf"
            }
        ]
    },
    {
        "users": [],
        "id": 4290,
        "name": "Loaves &  Fishes",
        "description": "Loaves & Fishes community kitchen offers meals to anyone in need of one, Tuesdays and Fridays, at 11:30am - 12:30pm.",
        "phone": "(802) 254-4730",
        "address": "193 Main Street",
        "city": "Brattleboro",
        "state": "Vermont",
        "zip": "05301",
        "lat": 42.8542,
        "lon": -72.55848,
        "categories": [
            {
                "id": 102,
                "name": "Food Bank \/ pantry \/ shelf"
            }
        ]
    },
    {
        "users": [],
        "id": 4309,
        "name": "Lyndon Area Food Shelf",
        "description": "Food pantry service hours: Wednesdays 1:30pm -4pm.",
        "phone": "(802) 626-5586",
        "address": "51 Elm Street",
        "city": "Lyndon",
        "state": "Vermont",
        "zip": "05851",
        "lat": 44.5344096,
        "lon": -72.0044822,
        "categories": [
            {
                "id": 102,
                "name": "Food Bank \/ pantry \/ shelf"
            }
        ]
    },
    {
        "users": [],
        "id": 4341,
        "name": "Malletts Bay Congregational Church",
        "description": "",
        "products": "",
        "keywords": "",
        "url": "",
        "email": "",
        "phone": "",
        "address": "1672 West Lakeshore Drive",
        "address2": "",
        "city": "Colchester",
        "state": "VT",
        "zip": "05446",
        "lat": 44.552395,
        "lon": -73.245567,
        "categories": [
            {
                "id": 102,
                "name": "Food Bank \/ pantry \/ shelf"
            }
        ]
    },
    {
        "users": [],
        "id": 4286,
        "name": "Montpelier Food Pantry",
        "description": "The Montpelier Food Pantry serves emergency meals to individuals and families in the greater Montpelier area.  We assist people who are in need of life\u2019s necessities and social justice.  We promote self-sufficiency and food independence through food education.\r\n\r\nPantry Hours: Tuesday 10-12, Wednesday 10-11 & 5-6 pm, Thursday & Friday 10-11.",
        "url": "http:\/\/justbasicsvt.org\/JBI\/Food_Pantry.html",
        "phone": "(802) 595-9145",
        "address": "137 Main Street",
        "city": "Montpelier",
        "state": "Vermont",
        "zip": "05602",
        "lat": 44.261391,
        "lon": -72.573406,
        "categories": [
            {
                "id": 102,
                "name": "Food Bank \/ pantry \/ shelf"
            }
        ]
    },
    {
        "users": [],
        "id": 4339,
        "name": "NEKCA Canaan",
        "description": "",
        "products": "",
        "keywords": "",
        "url": "http:\/\/nekcavt.org",
        "email": "",
        "phone": "",
        "address": "253 Gale Street",
        "address2": "",
        "city": "Canaan",
        "state": "VT",
        "zip": "05903",
        "lat": 44.996578,
        "lon": -71.539948,
        "categories": [
            {
                "id": 102,
                "name": "Food Bank \/ pantry \/ shelf"
            }
        ]
    },
    {
        "users": [],
        "id": 4355,
        "name": "NEKCA Island Pond",
        "description": "",
        "products": "",
        "keywords": "",
        "url": "",
        "email": "",
        "phone": "",
        "address": "49 Mill Street",
        "address2": "",
        "city": "Island Pond",
        "state": "VT",
        "zip": "05846",
        "lat": 44.8145405,
        "lon": -71.8802009,
        "categories": [
            {
                "id": 102,
                "name": "Food Bank \/ pantry \/ shelf"
            }
        ]
    },
    {
        "users": [],
        "id": 4370,
        "name": "NEKCA-Newport",
        "description": "",
        "products": "",
        "keywords": "",
        "url": "",
        "email": "",
        "phone": "",
        "address": "70 Main Street",
        "address2": "",
        "city": "Newport",
        "state": "VT",
        "zip": "05855",
        "lat": 44.93652,
        "lon": -72.207787,
        "categories": [
            {
                "id": 102,
                "name": "Food Bank \/ pantry \/ shelf"
            }
        ]
    },
    {
        "users": [],
        "id": 4390,
        "name": "NEKCA\/St. Johnsbury",
        "description": "",
        "products": "",
        "keywords": "",
        "url": "",
        "email": "",
        "phone": "",
        "address": "115 Lincoln Street",
        "address2": "",
        "city": "St. Johnsbury",
        "state": "VT",
        "zip": "05819",
        "lat": 44.419849,
        "lon": -71.999619,
        "categories": [
            {
                "id": 102,
                "name": "Food Bank \/ pantry \/ shelf"
            }
        ]
    },
    {
        "users": [],
        "id": 4368,
        "name": "Newbury Food Shelf",
        "description": "",
        "products": "",
        "keywords": "",
        "url": "",
        "email": "",
        "phone": "",
        "address": "Pine Street",
        "address2": "",
        "city": "Newbury",
        "state": "VT",
        "zip": "05051",
        "lat": 44.0804329,
        "lon": -72.0588374,
        "categories": [
            {
                "id": 102,
                "name": "Food Bank \/ pantry \/ shelf"
            }
        ]
    },
    {
        "users": [],
        "id": 2516,
        "name": "Northeast Kingdom Community Action",
        "description": "",
        "products": "",
        "keywords": "",
        "url": "http:\/\/nekcavt.org\/",
        "email": "",
        "phone": "(802) 334-7316",
        "address": "70 Main Street",
        "address2": "",
        "city": "Newport",
        "state": "VT",
        "zip": "05855",
        "lat": 44.93652,
        "lon": -72.207787,
        "categories": [
            {
                "id": 102,
                "name": "Food Bank \/ pantry \/ shelf"
            }
        ]
    },
    {
        "users": [],
        "id": 4301,
        "name": "Onion River Food Shelf",
        "description": "Serves Marshfield, Plainfield, Cabot, Calais, and East Montpelier areas. Hours: 10am to 2pm.",
        "phone": "(802) 223-6548",
        "address": "Old School House Common",
        "city": "Marshfield",
        "state": "Vermont",
        "zip": "05656",
        "lat": 44.349324967156,
        "lon": -72.355045080185,
        "categories": [
            {
                "id": 102,
                "name": "Food Bank \/ pantry \/ shelf"
            }
        ]
    },
    {
        "users": [],
        "id": 4314,
        "name": "Our Place Drop-In Center",
        "description": "Our Place Drop-In Center has been serving the community surrounding Bellows Falls, Vermont for nearly 20 years. Our mission is simple: \u201cConnecting people to food and each other.\u201d \r\n\r\nOur Place is open Monday through Friday. Breakfast is served 9-10:30 a.m. and lunch from 11:30-12:45.\r\n\r\nThe food shelf is open Monday through Friday, 9:00 a.m. \u2013 4 p.m.",
        "url": "http:\/\/ourplacevt.wordpress.com\/",
        "phone": "(802) 463-2217",
        "address": "4 Island Street",
        "city": "Bellows Falls",
        "state": "Vermont",
        "zip": "05101",
        "lat": 43.1350324,
        "lon": -72.4426728,
        "categories": [
            {
                "id": 102,
                "name": "Food Bank \/ pantry \/ shelf"
            }
        ]
    },
    {
        "users": [],
        "id": 4375,
        "name": "Pittsford Food Shelf",
        "description": "",
        "products": "",
        "keywords": "",
        "url": "",
        "email": "",
        "phone": "",
        "address": "4181 US 7",
        "address2": "",
        "city": "Pittsford",
        "state": "VT",
        "zip": "05763",
        "lat": 43.701411,
        "lon": -73.01142,
        "categories": [
            {
                "id": 102,
                "name": "Food Bank \/ pantry \/ shelf"
            }
        ]
    },
    {
        "users": [],
        "id": 4393,
        "name": "Pleasant Street Baptist Church",
        "description": "",
        "products": "",
        "keywords": "",
        "url": "",
        "email": "",
        "phone": "",
        "address": "193 Pleasant Street",
        "address2": "",
        "city": "St. Johnsbury",
        "state": "VT",
        "zip": "05819",
        "lat": 44.428322,
        "lon": -72.012733,
        "categories": [
            {
                "id": 102,
                "name": "Food Bank \/ pantry \/ shelf"
            }
        ]
    },
    {
        "users": [],
        "id": 4377,
        "name": "Poultney Food Shelf",
        "description": "",
        "products": "",
        "keywords": "",
        "url": "http:\/\/www.poultneyvt.com\/chamber-of-commerce\/the-poultney-food-shelf-inc\/",
        "email": "",
        "phone": "",
        "address": "66 Beaman St",
        "address2": "",
        "city": "Poultney",
        "state": "VT",
        "zip": "05764",
        "lat": 43.517883,
        "lon": -73.232437,
        "categories": [
            {
                "id": 102,
                "name": "Food Bank \/ pantry \/ shelf"
            }
        ]
    },
    {
        "users": [],
        "id": 2803,
        "name": "Pownal Food Pantry",
        "description": "",
        "products": "",
        "keywords": "",
        "url": "",
        "email": "",
        "phone": "",
        "address": "515 Hillside Road",
        "address2": "",
        "city": "Pownal",
        "state": "VT",
        "zip": "05261",
        "lat": 42.779685,
        "lon": -73.19079,
        "categories": [
            {
                "id": 102,
                "name": "Food Bank \/ pantry \/ shelf"
            }
        ]
    },
    {
        "users": [],
        "id": 4349,
        "name": "Praise Chapel Christian Outreach",
        "description": "",
        "products": "",
        "keywords": "",
        "url": "",
        "email": "",
        "phone": "",
        "address": "1625 Maple Street",
        "address2": "",
        "city": "Hartford",
        "state": "VT",
        "zip": "05047",
        "lat": 43.652282,
        "lon": -72.319887,
        "categories": [
            {
                "id": 102,
                "name": "Food Bank \/ pantry \/ shelf"
            }
        ]
    },
    {
        "users": [],
        "id": 4378,
        "name": "Putney Emergency Food Shelf",
        "description": "",
        "products": "",
        "keywords": "",
        "url": "",
        "email": "",
        "phone": "",
        "address": "10 Christian Square",
        "address2": "",
        "city": "Putney",
        "state": "VT",
        "zip": "05346",
        "lat": 42.9742553,
        "lon": -72.5210148,
        "categories": [
            {
                "id": 102,
                "name": "Food Bank \/ pantry \/ shelf"
            }
        ]
    },
    {
        "users": [],
        "id": 4379,
        "name": "Randolph Area Food Shelf",
        "description": "",
        "products": "",
        "keywords": "",
        "url": "http:\/\/www.randolphareafoodshelf.org\/",
        "email": "",
        "phone": "",
        "address": "12 Prince Street",
        "address2": "Unit 3",
        "city": "Randolph",
        "state": "VT",
        "zip": "05060",
        "lat": 43.9262749,
        "lon": -72.6647909,
        "categories": [
            {
                "id": 102,
                "name": "Food Bank \/ pantry \/ shelf"
            }
        ]
    },
    {
        "users": [],
        "id": 4381,
        "name": "Richmond Food Shelf",
        "description": "",
        "products": "",
        "keywords": "",
        "url": "http:\/\/richmondfoodshelfvt.org\/",
        "email": "",
        "phone": "",
        "address": "58 Bridge Street",
        "address2": "",
        "city": "Richmond",
        "state": "VT",
        "zip": "05477",
        "lat": 44.4045979,
        "lon": -72.9936542,
        "categories": [
            {
                "id": 102,
                "name": "Food Bank \/ pantry \/ shelf"
            }
        ]
    },
    {
        "users": [],
        "id": 4358,
        "name": "Second Congregational Church",
        "description": "",
        "products": "",
        "keywords": "",
        "url": "",
        "email": "",
        "phone": "",
        "address": "2051 Main Street",
        "address2": "",
        "city": "Londonderry",
        "state": "VT",
        "zip": "05148",
        "lat": 43.229034,
        "lon": -72.812248,
        "categories": [
            {
                "id": 102,
                "name": "Food Bank \/ pantry \/ shelf"
            }
        ]
    },
    {
        "users": [],
        "id": 4383,
        "name": "Sharon Food Shelf",
        "description": "",
        "products": "",
        "keywords": "",
        "url": "http:\/\/www.sharonvtcongchurch.org\/about\/lighthouse\/foodshelf\/",
        "email": "",
        "phone": "",
        "address": "55 Vermont Route 132",
        "address2": "",
        "city": "Sharon",
        "state": "VT",
        "zip": "05065",
        "lat": 43.785086,
        "lon": -72.453774,
        "categories": [
            {
                "id": 102,
                "name": "Food Bank \/ pantry \/ shelf"
            }
        ]
    },
    {
        "users": [],
        "id": 4384,
        "name": "Sheldon Methodist Church",
        "description": "",
        "products": "",
        "keywords": "",
        "url": "",
        "email": "",
        "phone": "",
        "address": "52 Church St",
        "address2": "",
        "city": "Sheldon",
        "state": "VT",
        "zip": "05483",
        "lat": 44.8825811,
        "lon": -72.941738,
        "categories": [
            {
                "id": 102,
                "name": "Food Bank \/ pantry \/ shelf"
            }
        ]
    },
    {
        "users": [],
        "id": 4387,
        "name": "Springfield Family Center",
        "description": "",
        "products": "",
        "keywords": "",
        "url": "http:\/\/springfieldfamilycenter.com",
        "email": "",
        "phone": "",
        "address": "365 Summer Street",
        "address2": "",
        "city": "Springfield",
        "state": "VT",
        "zip": "05156",
        "lat": 43.29207,
        "lon": -72.465695,
        "categories": [
            {
                "id": 102,
                "name": "Food Bank \/ pantry \/ shelf"
            }
        ]
    },
    {
        "users": [],
        "id": 4371,
        "name": "St. John the Baptist Church",
        "description": "",
        "products": "",
        "keywords": "",
        "url": "http:\/\/www.sjtbcc-vt.org\/",
        "email": "",
        "phone": "",
        "address": "3 Houghton Street",
        "address2": "",
        "city": "Bennington",
        "state": "VT",
        "zip": "05257",
        "lat": 42.9318413,
        "lon": -73.2407166,
        "categories": [
            {
                "id": 102,
                "name": "Food Bank \/ pantry \/ shelf"
            }
        ]
    },
    {
        "users": [],
        "id": 4391,
        "name": "St. Johnsbury Nutritional Center",
        "description": "",
        "products": "",
        "keywords": "",
        "url": "",
        "email": "",
        "phone": "",
        "address": "1207 Main Street",
        "address2": "",
        "city": "St. Johnsbury",
        "state": "VT",
        "zip": "05819",
        "lat": 44.419006,
        "lon": -72.021202,
        "categories": [
            {
                "id": 102,
                "name": "Food Bank \/ pantry \/ shelf"
            }
        ]
    },
    {
        "users": [],
        "id": 4394,
        "name": "Swanton Community Food Shelf",
        "description": "",
        "products": "",
        "keywords": "",
        "url": "",
        "email": "",
        "phone": "",
        "address": "65 Canada Street",
        "address2": "",
        "city": "Swanton",
        "state": "VT",
        "zip": "05488",
        "lat": 44.921747,
        "lon": -73.118642,
        "categories": [
            {
                "id": 102,
                "name": "Food Bank \/ pantry \/ shelf"
            }
        ]
    },
    {
        "users": [],
        "id": 4299,
        "name": "Thetford Food Shelf",
        "description": "Serves Thetford and surrounding areas. Hours: Tuesday and Thursday from 10am to 12pm.",
        "phone": "(802) 785-2922",
        "address": "3910 Vermont 113",
        "city": "Thetford",
        "state": "Vermont",
        "zip": "05075",
        "lat": 43.8314737,
        "lon": -72.2472785,
        "categories": [
            {
                "id": 102,
                "name": "Food Bank \/ pantry \/ shelf"
            }
        ]
    },
    {
        "users": [],
        "id": 4376,
        "name": "Twin Valley Senior Center",
        "description": "",
        "products": "",
        "keywords": "",
        "url": "",
        "email": "",
        "phone": "",
        "address": "122 School Street",
        "address2": "",
        "city": "Marshfield",
        "state": "VT",
        "zip": "05658",
        "lat": 44.349356,
        "lon": -72.355082,
        "categories": [
            {
                "id": 102,
                "name": "Food Bank \/ pantry \/ shelf"
            }
        ]
    },
    {
        "users": [],
        "id": 4369,
        "name": "United Church of Newport",
        "description": "",
        "products": "",
        "keywords": "",
        "url": "http:\/\/www.unitedchurchnewport.org\/",
        "email": "",
        "phone": "",
        "address": "63 Third Street",
        "address2": "",
        "city": "Newport",
        "state": "VT",
        "zip": "05855",
        "lat": 44.934182,
        "lon": -72.211186,
        "categories": [
            {
                "id": 102,
                "name": "Food Bank \/ pantry \/ shelf"
            }
        ]
    },
    {
        "users": [],
        "id": 4363,
        "name": "United Methodist Church Food Shelf",
        "description": "",
        "products": "",
        "keywords": "",
        "url": "",
        "email": "",
        "phone": "",
        "address": "12 Church Street",
        "address2": "",
        "city": "Middlesex",
        "state": "VT",
        "zip": "05602",
        "lat": 44.292629,
        "lon": -72.680641,
        "categories": [
            {
                "id": 102,
                "name": "Food Bank \/ pantry \/ shelf"
            }
        ]
    },
    {
        "users": [],
        "id": 4284,
        "name": "Victory Baptist Church",
        "description": "Victory Baptist Church provides a food pantry for the Vergennes area.",
        "url": "http:\/\/victoryvt.org\/",
        "phone": "(802) 877-3393",
        "address": "862 US Route 7",
        "city": "Vergennes",
        "state": "Vermont",
        "zip": "05491",
        "lat": 44.158147797796,
        "lon": -73.225743770599,
        "categories": [
            {
                "id": 102,
                "name": "Food Bank \/ pantry \/ shelf"
            }
        ]
    },
    {
        "users": [],
        "id": 3939,
        "name": "Waterbury Area Food Shelf",
        "description": "",
        "products": "",
        "keywords": "",
        "url": "http:\/\/waterburycast.wordpress.com\/waterbury-area-food-shelf\/",
        "email": "",
        "phone": "8022441561",
        "address": "57 S Main St",
        "address2": "",
        "city": "Waterbury",
        "state": "VT",
        "zip": "05676",
        "lat": 44.336014,
        "lon": -72.754906,
        "categories": [
            {
                "id": 102,
                "name": "Food Bank \/ pantry \/ shelf"
            }
        ]
    },
    {
        "users": [],
        "id": 4336,
        "name": "West Brattleboro Baptist Church",
        "description": "",
        "products": "",
        "keywords": "",
        "url": "",
        "email": "",
        "phone": "",
        "address": "979 Western Ave",
        "address2": "",
        "city": "Brattleboro",
        "state": "VT",
        "zip": "05301",
        "lat": 42.85455,
        "lon": -72.60071,
        "categories": [
            {
                "id": 102,
                "name": "Food Bank \/ pantry \/ shelf"
            }
        ]
    },
    {
        "users": [],
        "id": 4386,
        "name": "Woodbury\/Calais Food Shelf",
        "description": "",
        "products": "",
        "keywords": "",
        "url": "",
        "email": "",
        "phone": "",
        "address": "49 Valley Lake Road",
        "address2": "",
        "city": "Woodbury",
        "state": "VT",
        "zip": "05681",
        "lat": 44.440703,
        "lon": -72.416088,
        "categories": [
            {
                "id": 102,
                "name": "Food Bank \/ pantry \/ shelf"
            }
        ]
    },
    {
        "users": [
            {
                "first_name": "Heather",
                "last_name": "Bagley",
                "title": "Executive Director",
                "email": "director@willinghands.org",
                "phone": "8026980265"
            }
        ],
        "id": 4045,
        "name": "Willing Hands",
        "description": "Willing Hands recovers surplus fruits and vegetables and delivers  to organizations serving our neighbors in need. We work within a 30 mile radius of White River Junction, operate seven days a week all year round, and deliver on average about 4 tons of food each week.  We pick up surplus from grocers, farmers, bakers and chefs and deliver to foodshelves, community meals, rehab programs and directly to seniors and families living in subsidized housing . We provide all of our services free of charge.",
        "products": "",
        "keywords": "",
        "url": "",
        "email": "director@willinghands.org",
        "phone": "8026980265",
        "address": "128 Union Village Road",
        "address2": "",
        "city": "Norwich",
        "state": "VT",
        "zip": "05055",
        "lat": 43.728294,
        "lon": -72.309814,
        "categories": [
            {
                "id": 102,
                "name": "Food Bank \/ pantry \/ shelf"
            }
        ]
    },
    {
        "users": [
            {
                "first_name": "Michelle",
                "last_name": "Barber",
                "email": "mbarber@vtfoodbank.org",
                "phone": "802-477-4135"
            },
            {
                "first_name": "Jennifer",
                "last_name": "Hutchinson",
                "title": "Youth Programs Manager",
                "email": "jhutchinson@vtfoodbank.org",
                "phone": "(802) 477-4126"
            },
            {
                "first_name": "Chris",
                "last_name": "Meehan",
                "title": "Chief of Programs and Network Services",
                "email": "cmeehan@vtfoodbank.org",
                "phone": "(802) 477-4130"
            },
            {
                "first_name": "John",
                "last_name": "Sayles",
                "title": "Chief Executive Officer",
                "email": "jsayles@vtfoodbank.org",
                "phone": "(802) 477-4101"
            },
            {
                "first_name": "Judy",
                "last_name": "Stermer",
                "title": "Director of Communications and Public Affairs",
                "email": "jstermer@vtfoodbank.org",
                "phone": "8024774108"
            },
            {
                "first_name": "Michelle",
                "last_name": "Wallace",
                "title": "Program Manager",
                "bio": "I am a manager of local food system initiatives at the Vermont Foodbank, including the Gleaning Program, Pick for Your Neighbor, and Community Kitchen Academy. These programs aim to make local fresh foods accessible to Vermonters-in-need via 280 partnering organizations including foodshelves, community meal sites, senior centers, and after school programs.",
                "email": "mwallace@vtfoodbank.org",
                "phone": "8024774125"
            }
        ],
        "id": 3815,
        "name": "Vermont Foodbank",
        "description": "The mission of the Vermont Foodbank is to gather and share quality food and nurture partnerships so that no one in Vermont will go hungry.",
        "products": "",
        "keywords": "",
        "url": "http:\/\/www.vtfoodbank.org\/",
        "email": "",
        "phone": "8024774125",
        "address": "33 Parker Road",
        "city": "Barre",
        "state": "VT",
        "zip": "05641",
        "lat": 44.173303,
        "lon": -72.482663,
        "categories": [
            {
                "id": 102,
                "name": "Food Bank \/ pantry \/ shelf"
            }
        ]
    },
    {
        "users": [
            {
                "first_name": "Susan",
                "last_name": "Fox",
                "email": "sfoxmow@comcast.net"
            }
        ],
        "id": 222,
        "name": "Bennington County Meals Program",
        "description": "",
        "url": "",
        "email": "",
        "phone": "",
        "address": "124 Pleasant Street",
        "address2": "",
        "city": "Bennington",
        "state": "VT",
        "zip": "05201",
        "lat": 42.8790966,
        "lon": -73.1955483,
        "categories": [
            {
                "id": 102,
                "name": "Food Bank \/ pantry \/ shelf"
            }
        ]
    },
    {
        "users": [
            {
                "first_name": "Suzanne",
                "last_name": "Joyal",
                "title": "President",
                "bio": "I am a buyer for the Reading\/West Windsor Food Shelf",
                "email": "suejvt@gmail.com",
                "phone": "8024849792"
            }
        ],
        "id": 2901,
        "name": "Reading\/West Windsor Food Shelf",
        "description": "",
        "products": "",
        "keywords": "",
        "url": "",
        "email": "suejvt@gmail.com",
        "phone": "8024849792",
        "address": "352 Wardner Road",
        "address2": "",
        "city": "West Windsor",
        "state": "VT",
        "zip": "05089",
        "lat": 43.51186,
        "lon": -72.52462,
        "categories": [
            {
                "id": 102,
                "name": "Food Bank \/ pantry \/ shelf"
            }
        ]
    },
    {
        "users": [
            {
                "first_name": "Aaron",
                "last_name": "Locker",
                "email": "kingsburymktgarden@live.com",
                "phone": "(802) 496-6815"
            },
            {
                "first_name": "Judy",
                "last_name": "Stermer",
                "email": "jstermer@vtfoodbank.org",
                "phone": "8024774108"
            }
        ],
        "id": 1878,
        "name": "Kingsbury Farm (Vermont Foodbank)",
        "description": "",
        "products": "Mixed vegetables, bread, berries",
        "keywords": "Mixed vegetables, bread, berries",
        "url": "http:\/\/www.kingsburymarketgarden.com",
        "email": "kingsburymktgarden@live.com",
        "phone": "(802) 496-6815",
        "address": "284 Route 100",
        "address2": "",
        "city": "Warren",
        "state": "VT",
        "zip": "05674",
        "lat": 44.142941,
        "lon": -72.842804,
        "categories": [
            {
                "id": 102,
                "name": "Food Bank \/ pantry \/ shelf"
            }
        ]
    },
    {
        "users": [
            {
                "first_name": "Dave",
                "last_name": "Rubin",
                "email": "drubin@cvcac.org",
                "phone": "(802) 479-1053"
            }
        ],
        "id": 584,
        "name": "Central Vermont Community Action Council",
        "description": "",
        "products": "",
        "keywords": "",
        "url": "http:\/\/www.cvcac.org\/",
        "email": "",
        "phone": "(802) 479-1053",
        "address": "195 US 302",
        "address2": "",
        "city": "Barre",
        "state": "VT",
        "zip": "05641",
        "lat": 44.215905,
        "lon": -72.5366353,
        "categories": [
            {
                "id": 102,
                "name": "Food Bank \/ pantry \/ shelf"
            }
        ]
    }
]
